{
  "properties": [
    {
      "id": 1,
      "city": "Noto (SR)",
      "country": "Italia",
      "address": "Via Carlo, Vico Pisacane, 3",
      "name": "Trattoria Giufà",
      "lat": 36.89018859589135,
      "long": 15.072539726504212,
      "date": "13/09/2021",
      "ratings": {
        "location": 7,
        "service": 7,
        "menu": 7,
        "price": 6
      },
      "images": ["1-1.jpeg"]
    },
    {
      "id": 2,
      "city": "Siracusa (SR)",
      "country": "Italia",
      "address": "Via Cavour, 28",
      "name": "Sicilia in Tavola",
      "lat": 37.06170599397385,
      "long": 15.292956024658185,
      "date": "14/09/2021",
      "ratings": {
        "location": 7,
        "service": 5,
        "menu": 8,
        "price": 6
      },
      "images": ["2-1.jpeg"]
    },
    {
      "id": 3,
      "city": "Noto (SR)",
      "name": "Pizzeria Casa Matta",
      "country": "Italia",
      "address": "Via Tommaso Fazello, 23",
      "lat": 36.89341732336414,
      "long": 15.065414626504229,
      "date": "14/09/2021",
      "ratings": {
        "location": 5,
        "service": 6,
        "menu": 9,
        "price": 8
      },
      "images": ["3-1.jpeg", "3-2.jpeg", "3-3.jpeg"]
    },
    {
      "id": 4,
      "city": "Marzamemi (SR)",
      "name": "Sama",
      "country": "Italia",
      "address": "Piazzale Raffaele Brancati, 2",
      "lat": 36.74285792656812,
      "long": 15.119098068827979,
      "date": "15/09/2021",
      "ratings": {
        "location": 7,
        "service": 6,
        "menu": 8,
        "price": 6
      },
      "images": ["4-1.jpeg", "4-2.jpeg"]
    },
    {
      "id": 5,
      "city": "Noto (SR)",
      "name": "Tannur",
      "country": "Italia",
      "address": "Via Ascenzo Mauceri, 3",
      "lat": 36.891756889220154,
      "long": 15.07293061116067,
      "date": "18/09/2021",
      "ratings": {
        "location": 6,
        "service": 7,
        "menu": 7,
        "price": 6
      },
      "images": ["5-1.jpeg", "5-2.jpeg", "5-3.jpeg"]
    },
    {
      "id": 6,
      "city": "Castelmola (ME)",
      "name": "A' Ficaredda",
      "country": "Italia",
      "address": "Via Tutti I Santi, Largo San Giorgio, 1",
      "lat": 37.858780981661305,
      "long": 15.278127682354285,
      "date": "20/09/2021",
      "ratings": {
        "location": 6,
        "service": 8,
        "menu": 6,
        "price": 7
      },
      "images": ["6-1.jpeg", "6-2.jpeg"]
    },
    {
      "id": 7,
      "city": "Castelmola (ME)",
      "name": "Bar Turrisi",
      "country": "Italia",
      "address": "Via Papa Pio IX, 19",
      "lat": 37.85851382849545,
      "long": 15.277400882354243,
      "date": "21/09/2021",
      "ratings": {
        "location": 8,
        "service": 4,
        "menu": 6,
        "price": 5
      },
      "images": ["7-1.jpeg", "7-2.jpeg"]
    },
    {
      "id": 8,
      "city": "Giardini Naxos (ME)",
      "name": "La Sirena",
      "country": "Italia",
      "address": "Via Schisò, 36",
      "lat": 37.824560949942125,
      "long": 15.274264497696707,
      "date": "22/09/2021",
      "ratings": {
        "location": 6,
        "service": 5,
        "menu": 6,
        "price": 5
      },
      "images": ["8-1.jpeg", "8-2.jpeg"]
    },
    {
      "id": 9,
      "city": "Castelmola (ME)",
      "name": "Pizzeria Nina",
      "country": "Italia",
      "address": "Via Tutti I Santi",
      "lat": 37.859073222443705,
      "long": 15.278041111190133,
      "date": "22/09/2021",
      "ratings": {
        "location": 7,
        "service": 6,
        "menu": 6,
        "price": 5
      },
      "images": ["9-1.jpeg", "9-2.jpeg"]
    },
    {
      "id": 10,
      "city": "Bologna (BO)",
      "name": "Nonna Rosa",
      "country": "Italia",
      "address": "Via Piave, 31",
      "lat": 44.50129420565907,
      "long": 11.315128269312904,
      "date": "25/07/2021",
      "ratings": {
        "location": 6,
        "service": 6,
        "menu": 7,
        "price": 6
      },
      "images": ["10-1.jpeg", "10-2.jpeg", "10-3.jpeg"]
    },
    {
      "id": 11,
      "city": "Santa Cristina Valgardena (BZ)",
      "name": "La Tambra",
      "country": "Italia",
      "address": "Str. Dursan, 13",
      "lat": 46.55819238074703,
      "long": 11.723844111327201,
      "date": "16/07/2021",
      "ratings": {
        "location": 6,
        "service": 6,
        "menu": 8,
        "price": 4
      },
      "images": ["11-1.jpeg", "11-2.jpeg"]
    },
    {
      "id": 12,
      "city": "Santa Cristina Valgardena (BZ)",
      "name": "L Fudlè",
      "country": "Italia",
      "address": "Str. Dursan, 86",
      "lat": 46.55827377112667,
      "long": 11.725821882491175,
      "date": "18/07/2021",
      "ratings": {
        "location": 6,
        "service": 7,
        "menu": 7,
        "price": 7
      },
      "images": ["12-1.jpeg", "12-2.jpeg"]
    },
    {
      "id": 13,
      "city": "Marina di Massa (MS)",
      "name": "Ristorante La Peniche",
      "country": "Italia",
      "address": "Via Lungobrugiano, 3",
      "lat": 44.010751807128095,
      "long": 10.099112482391925,
      "date": "12/08/2021",
      "ratings": {
        "location": 6,
        "service": 7,
        "menu": 7,
        "price": 5
      },
      "images": ["13-1.jpeg", "13-2.jpeg"]
    },
    {
      "id": 14,
      "city": "Lido di Camaiore (LU)",
      "name": "Caffe Godot",
      "country": "Italia",
      "address": "Viale Europa, 72",
      "lat": 43.894015908345445,
      "long": 10.224848313075682,
      "date": "18/06/2021",
      "ratings": {
        "location": 7,
        "service": 7,
        "menu": 7,
        "price": 4
      },
      "images": ["14-1.jpeg", "14-2.jpeg", "14-3.jpeg"]
    },
    {
      "id": 15,
      "city": "Bologna (BO)",
      "name": "Osteria Bartolini",
      "country": "Italia",
      "address": "Piazza Malpighi, 16",
      "lat": 44.493900557469544,
      "long": 11.3365251112464,
      "date": "04/11/2021",
      "ratings": {
        "location": 7,
        "service": 7,
        "menu": 6,
        "price": 6
      },
      "images": ["15-1.jpeg", "15-2.jpeg", "15-3.jpeg", "15-4.jpeg"]
    },
    {
      "id": 16,
      "city": "Bologna (BO)",
      "name": "Mythos",
      "country": "Italia",
      "address": "Via Carlo Sigonio, 3/A",
      "lat": 44.484016796528046,
      "long": 11.37193408465822,
      "date": "18/11/2021",
      "ratings": {
        "location": 5,
        "service": 6,
        "menu": 5,
        "price": 6
      },
      "images": ["16-1.jpeg"]
    },
    {
      "id": 17,
      "city": "Firenze (FI)",
      "name": "MUN Sushi Lab",
      "country": "Italia",
      "address": "Via di Novoli, 53",
      "lat": 43.79105877204088,
      "long": 11.225004782238157,
      "date": "11/12/2021",
      "ratings": {
        "location": 7,
        "service": 6,
        "menu": 7,
        "price": 6
      },
      "images": [
        "17-1.jpeg",
        "17-2.jpeg",
        "17-3.jpeg",
        "17-4.jpeg",
        "17-5.jpeg"
      ]
    },
    {
      "id": 18,
      "city": "Fiesole (FI)",
      "name": "Tullio a Montebeni",
      "country": "Italia",
      "address": "Via Ontignano, 48",
      "lat": 43.79235855948672,
      "long": 11.332650211073608,
      "date": "22/01/2022",
      "ratings": {
        "location": 5,
        "service": 4,
        "menu": 7,
        "price": 7
      },
      "images": ["18-1.jpeg, 18-2.jpeg"]
    },
    {
      "id": 19,
      "city": "Radda in Chianti (SI)",
      "name": "Osteria Il Rifugio del Chianti",
      "country": "Italia",
      "address": "Località Montemuro, 12",
      "lat": 43.545821980004035,
      "long": 11.397494682228691,
      "date": "29/01/2022",
      "ratings": {
        "location": 6,
        "service": 8,
        "menu": 8,
        "price": 7
      },
      "images": ["19-1.jpeg", "19-2.jpeg"]
    },
    {
      "id": 20,
      "city": "Pontassieve (FI)",
      "name": "Podere Belvedere",
      "country": "Italia",
      "address": "Via S.Piero a Strada, 23",
      "lat": 43.82404959544258,
      "long": 11.459442653966397,
      "date": "05/03/2022",
      "ratings": {
        "location": 7,
        "service": 8,
        "menu": 8,
        "price": 8
      },
      "images": [
        "20-1.jpeg",
        "20-2.jpeg",
        "20-3.jpeg",
        "20-4.jpeg",
        "20-5.jpeg",
        "20-6.jpeg",
        "20-7.jpeg",
        "20-8.jpeg",
        "20-9.jpeg",
        "20-10.jpeg",
        "20-11.jpeg",
        "20-12.jpeg",
        "20-13.jpeg",
        "20-14.jpeg",
        "20-15.jpeg"
      ]
    },
    {
      "id": 21,
      "city": "Forte dei Marmi (LU)",
      "name": "Pesce Baracca",
      "country": "Italia",
      "address": "Via Achille Franceschi, 2",
      "lat": 43.957899727785026,
      "long": 10.16742652490699,
      "date": "03/04/2022",
      "ratings": {
        "location": 7,
        "service": 6,
        "menu": 7,
        "price": 5
      },
      "images": ["21-1.jpeg", "21-2.jpeg", "21-3.jpeg"]
    },
    {
      "id": 22,
      "city": "Firenze (FI)",
      "name": "Taj Palace",
      "country": "Italia",
      "address": "Via Il Prato, 9r",
      "lat": 43.77481631387975,
      "long": 11.242609984670612,
      "date": "07/05/2022",
      "ratings": {
        "location": 6,
        "service": 7,
        "menu": 7,
        "price": 7
      },
      "images": ["22-1.jpeg"]
    },
    {
      "id": 23,
      "city": "Bagno a Ripoli (FI)",
      "name": "Ristorante L'Acqua Cheta",
      "country": "Italia",
      "address": "Via di Rosano, 59",
      "lat": 43.78309014585549,
      "long": 11.367378111409263,
      "date": "21/05/2022",
      "ratings": {
        "location": 5,
        "service": 4,
        "menu": 7,
        "price": 6
      },
      "images": []
    }
  ]
}
